[{"model": "tenants.campus", "pk": 1, "fields": {"brand": 1, "code": "SKF-DUR", "name": "SkillsFlow Academy - Durban", "campus_type": "CAMPUS", "region": "", "address_line1": "45 Church Street", "address_line2": "", "suburb": "Central", "city": "Durban", "province": "KwaZulu-Natal", "postal_code": "4000", "country": "South Africa", "email": "durban@skillsflow.co.za", "phone": "+27724390222", "latitude": null, "longitude": null, "is_active": true}}, {"model": "tenants.campus", "pk": 2, "fields": {"brand": 1, "code": "SKF-PRE", "name": "SkillsFlow Academy - Pretoria", "campus_type": "CAMPUS", "region": "", "address_line1": "314 Church Street", "address_line2": "", "suburb": "Industrial", "city": "Pretoria", "province": "Gauteng", "postal_code": "0001", "country": "South Africa", "email": "pretoria@skillsflow.co.za", "phone": "+27785747879", "latitude": null, "longitude": null, "is_active": true}}, {"model": "tenants.campus", "pk": 3, "fields": {"brand": 1, "code": "SKF-BLO", "name": "SkillsFlow Academy - Bloemfontein", "campus_type": "CAMPUS", "region": "", "address_line1": "66 Church Street", "address_line2": "", "suburb": "South", "city": "Bloemfontein", "province": "Free State", "postal_code": "9301", "country": "South Africa", "email": "bloemfontein@skillsflow.co.za", "phone": "+27887450043", "latitude": null, "longitude": null, "is_active": true}}, {"model": "tenants.campus", "pk": 4, "fields": {"brand": 2, "code": "SKF-CORP-DUR", "name": "SkillsFlow Corporate - Durban", "campus_type": "CAMPUS", "region": "", "address_line1": "213 High Street", "address_line2": "", "suburb": "North", "city": "Durban", "province": "KwaZulu-Natal", "postal_code": "4000", "country": "South Africa", "email": "durban@skillsflow.co.za", "phone": "+27734553843", "latitude": null, "longitude": null, "is_active": true}}, {"model": "tenants.campus", "pk": 5, "fields": {"brand": 2, "code": "SKF-CORP-CEN", "name": "SkillsFlow Corporate - Centurion", "campus_type": "CAMPUS", "region": "", "address_line1": "260 High Street", "address_line2": "", "suburb": "CBD", "city": "Centurion", "province": "Gauteng", "postal_code": "0157", "country": "South Africa", "email": "centurion@skillsflow.co.za", "phone": "+27516549991", "latitude": null, "longitude": null, "is_active": true}}, {"model": "tenants.campus", "pk": 6, "fields": {"brand": 2, "code": "SKF-CORP-KIM", "name": "SkillsFlow Corporate - Kimberley", "campus_type": "CAMPUS", "region": "", "address_line1": "290 Main Street", "address_line2": "", "suburb": "Industrial", "city": "Kimberley", "province": "Northern Cape", "postal_code": "8301", "country": "South Africa", "email": "kimberley@skillsflow.co.za", "phone": "+27428375682", "latitude": null, "longitude": null, "is_active": true}}, {"model": "tenants.campus", "pk": 7, "fields": {"brand": 3, "code": "SKF-ONLINE-DUR", "name": "SkillsFlow Online - Durban", "campus_type": "CAMPUS", "region": "", "address_line1": "216 Main Street", "address_line2": "", "suburb": "South", "city": "Durban", "province": "KwaZulu-Natal", "postal_code": "4000", "country": "South Africa", "email": "durban@skillsflow.co.za", "phone": "+27576215367", "latitude": null, "longitude": null, "is_active": true}}, {"model": "tenants.campus", "pk": 8, "fields": {"brand": 3, "code": "SKF-ONLINE-KIM", "name": "SkillsFlow Online - Kimberley", "campus_type": "CAMPUS", "region": "", "address_line1": "498 Main Street", "address_line2": "", "suburb": "CBD", "city": "Kimberley", "province": "Northern Cape", "postal_code": "8301", "country": "South Africa", "email": "kimberley@skillsflow.co.za", "phone": "+27543181702", "latitude": null, "longitude": null, "is_active": true}}, {"model": "tenants.campus", "pk": 9, "fields": {"brand": 3, "code": "SKF-ONLINE-NEL", "name": "SkillsFlow Online - Nelspruit", "campus_type": "CAMPUS", "region": "", "address_line1": "126 Church Street", "address_line2": "", "suburb": "Industrial", "city": "Nelspruit", "province": "Mpumalanga", "postal_code": "1200", "country": "South Africa", "email": "nelspruit@skillsflow.co.za", "phone": "+27128532344", "latitude": null, "longitude": null, "is_active": true}}, {"model": "tenants.campus", "pk": 10, "fields": {"brand": 4, "code": "JOH01", "name": "Johannesburg Campus", "campus_type": "HEAD_OFFICE", "region": "Gauteng", "address_line1": "", "address_line2": "", "suburb": "", "city": "Johannesburg", "province": "Gauteng", "postal_code": "", "country": "South Africa", "email": "johannesburg@skillsflow.co.za", "phone": "+27 16 815 5308", "latitude": null, "longitude": null, "is_active": true}}, {"model": "tenants.campus", "pk": 11, "fields": {"brand": 4, "code": "PRE02", "name": "Pretoria Campus", "campus_type": "CAMPUS", "region": "Gauteng", "address_line1": "", "address_line2": "", "suburb": "", "city": "Pretoria", "province": "Gauteng", "postal_code": "", "country": "South Africa", "email": "pretoria@skillsflow.co.za", "phone": "+27 37 606 4345", "latitude": null, "longitude": null, "is_active": true}}, {"model": "tenants.campus", "pk": 12, "fields": {"brand": 4, "code": "CAP03", "name": "Cape Town Campus", "campus_type": "CAMPUS", "region": "Western Cape", "address_line1": "", "address_line2": "", "suburb": "", "city": "Cape Town", "province": "Western Cape", "postal_code": "", "country": "South Africa", "email": "cape town@skillsflow.co.za", "phone": "+27 62 560 8349", "latitude": null, "longitude": null, "is_active": true}}, {"model": "tenants.campus", "pk": 13, "fields": {"brand": 4, "code": "DUR04", "name": "Durban Campus", "campus_type": "CAMPUS", "region": "KwaZulu-Natal", "address_line1": "", "address_line2": "", "suburb": "", "city": "Durban", "province": "KwaZulu-Natal", "postal_code": "", "country": "South Africa", "email": "durban@skillsflow.co.za", "phone": "+27 34 244 7649", "latitude": null, "longitude": null, "is_active": true}}, {"model": "tenants.campus", "pk": 14, "fields": {"brand": 4, "code": "POR05", "name": "Port Elizabeth Campus", "campus_type": "CAMPUS", "region": "Eastern Cape", "address_line1": "", "address_line2": "", "suburb": "", "city": "Port Elizabeth", "province": "Eastern Cape", "postal_code": "", "country": "South Africa", "email": "port elizabeth@skillsflow.co.za", "phone": "+27 60 208 4873", "latitude": null, "longitude": null, "is_active": true}}, {"model": "tenants.campus", "pk": 15, "fields": {"brand": 4, "code": "BLO06", "name": "Bloemfontein Campus", "campus_type": "CAMPUS", "region": "Free State", "address_line1": "", "address_line2": "", "suburb": "", "city": "Bloemfontein", "province": "Free State", "postal_code": "", "country": "South Africa", "email": "bloemfontein@skillsflow.co.za", "phone": "+27 42 465 6672", "latitude": null, "longitude": null, "is_active": true}}, {"model": "tenants.campus", "pk": 16, "fields": {"brand": 4, "code": "EAS07", "name": "East London Campus", "campus_type": "CAMPUS", "region": "Eastern Cape", "address_line1": "", "address_line2": "", "suburb": "", "city": "East London", "province": "Eastern Cape", "postal_code": "", "country": "South Africa", "email": "east london@skillsflow.co.za", "phone": "+27 51 105 9460", "latitude": null, "longitude": null, "is_active": true}}, {"model": "tenants.campus", "pk": 17, "fields": {"brand": 4, "code": "POL08", "name": "Polokwane Campus", "campus_type": "CAMPUS", "region": "Limpopo", "address_line1": "", "address_line2": "", "suburb": "", "city": "Polokwane", "province": "Limpopo", "postal_code": "", "country": "South Africa", "email": "polokwane@skillsflow.co.za", "phone": "+27 88 490 6974", "latitude": null, "longitude": null, "is_active": true}}, {"model": "tenants.campus", "pk": 18, "fields": {"brand": 4, "code": "NEL09", "name": "Nelspruit Campus", "campus_type": "CAMPUS", "region": "Mpumalanga", "address_line1": "", "address_line2": "", "suburb": "", "city": "Nelspruit", "province": "Mpumalanga", "postal_code": "", "country": "South Africa", "email": "nelspruit@skillsflow.co.za", "phone": "+27 35 356 4675", "latitude": null, "longitude": null, "is_active": true}}, {"model": "tenants.campus", "pk": 19, "fields": {"brand": 4, "code": "KIM10", "name": "Kimberley Campus", "campus_type": "CAMPUS", "region": "Northern Cape", "address_line1": "", "address_line2": "", "suburb": "", "city": "Kimberley", "province": "Northern Cape", "postal_code": "", "country": "South Africa", "email": "kimberley@skillsflow.co.za", "phone": "+27 79 709 9787", "latitude": null, "longitude": null, "is_active": true}}, {"model": "tenants.campus", "pk": 20, "fields": {"brand": 4, "code": "RUS11", "name": "Rustenburg Campus", "campus_type": "CAMPUS", "region": "North West", "address_line1": "", "address_line2": "", "suburb": "", "city": "Rustenburg", "province": "North West", "postal_code": "", "country": "South Africa", "email": "rustenburg@skillsflow.co.za", "phone": "+27 83 476 5808", "latitude": null, "longitude": null, "is_active": true}}, {"model": "tenants.campus", "pk": 21, "fields": {"brand": 4, "code": "PIE12", "name": "Pietermaritzburg Campus", "campus_type": "CAMPUS", "region": "KwaZulu-Natal", "address_line1": "", "address_line2": "", "suburb": "", "city": "Pietermaritzburg", "province": "KwaZulu-Natal", "postal_code": "", "country": "South Africa", "email": "pietermaritzburg@skillsflow.co.za", "phone": "+27 37 995 5815", "latitude": null, "longitude": null, "is_active": true}}, {"model": "tenants.campus", "pk": 22, "fields": {"brand": 4, "code": "SAN13", "name": "Sandton Campus", "campus_type": "CAMPUS", "region": "Gauteng", "address_line1": "", "address_line2": "", "suburb": "", "city": "Sandton", "province": "Gauteng", "postal_code": "", "country": "South Africa", "email": "sandton@skillsflow.co.za", "phone": "+27 74 660 6358", "latitude": null, "longitude": null, "is_active": true}}, {"model": "tenants.campus", "pk": 23, "fields": {"brand": 4, "code": "MID14", "name": "Midrand Campus", "campus_type": "CAMPUS", "region": "Gauteng", "address_line1": "", "address_line2": "", "suburb": "", "city": "Midrand", "province": "Gauteng", "postal_code": "", "country": "South Africa", "email": "midrand@skillsflow.co.za", "phone": "+27 65 118 4046", "latitude": null, "longitude": null, "is_active": true}}, {"model": "tenants.campus", "pk": 24, "fields": {"brand": 4, "code": "CEN15", "name": "Centurion Campus", "campus_type": "CAMPUS", "region": "Gauteng", "address_line1": "", "address_line2": "", "suburb": "", "city": "Centurion", "province": "Gauteng", "postal_code": "", "country": "South Africa", "email": "centurion@skillsflow.co.za", "phone": "+27 77 164 5736", "latitude": null, "longitude": null, "is_active": true}}, {"model": "tenants.campus", "pk": 25, "fields": {"brand": 5, "code": "JHB-MAIN", "name": "Johannesburg Main Campus", "campus_type": "CAMPUS", "region": "Gauteng", "address_line1": "123 Training Street", "address_line2": "", "suburb": "Sandton", "city": "Johannesburg", "province": "Gauteng", "postal_code": "2196", "country": "South Africa", "email": "jhb@skillsflow.co.za", "phone": "+27 11 123 4567", "latitude": null, "longitude": null, "is_active": true}}, {"model": "tenants.campus", "pk": 26, "fields": {"brand": 6, "code": "HQ", "name": "Head Office", "campus_type": "HEAD_OFFICE", "region": "", "address_line1": "", "address_line2": "", "suburb": "", "city": "", "province": "", "postal_code": "", "country": "South Africa", "email": "", "phone": "", "latitude": null, "longitude": null, "is_active": true}}]